$GPRMC,091612.00,V,,,,,,,080920,,,N*76
$GPRMC,091623,V,0000.0000,S,00000.0000,W,0.0000,0.000,080920,,*3C
$GPRMC,091624,V,0000.0000,S,00000.0000,W,0.0000,0.000,080920,,*3B
$GPRMC,091635,V,4948.0697,N,02332.4845,E,0.0000,0.000,080920,,*30
$GPRMC,091636,V,5051.5080,N,01811.1996,E,0.0000,0.000,080920,,*35
$GPRMC,091636,V,5001.0197,N,02233.5001,E,0.0000,0.000,080920,,*38
$GPRMC,091648,V,4331.7547,N,04209.3833,E,0.0000,0.000,080920,,*3E
$GPRMC,091649,V,4827.4130,N,02850.7730,E,0.0000,0.000,080920,,*3C
$GPRMC,091649,V,4707.3589,N,03309.6551,E,0.0000,0.000,080920,,*32
$GPRMC,091701,V,4853.1192,N,02717.7512,E,0.0000,0.000,080920,,*31
$GPRMC,091702,V,4853.1093,N,02717.8527,E,0.0000,0.000,080920,,*3B
$GPRMC,091703,V,4853.0994,N,02717.9542,E,0.0000,0.000,080920,,*37
$GPRMC,091713,V,4927.6809,N,02459.7728,E,0.0000,0.000,080920,,*3E
$GPRMC,091713,V,4642.1352,N,03428.2745,E,0.0000,0.000,080920,,*39
$GPRMC,091725,V,4617.3824,N,03540.2002,E,0.0000,0.000,080920,,*3F
$GPRMC,091726,V,4605.6104,N,03612.4597,E,0.0000,0.000,080920,,*3A
$GPRMC,091726,V,4656.9419,N,03348.1309,E,0.0000,0.000,080920,,*34
$GPRMC,091737,V,4912.3198,N,02603.7875,E,0.0000,0.000,080920,,*30
$GPRMC,091738,V,4931.8412,N,02441.5435,E,0.0000,0.000,080920,,*3C
$GPRMC,091739,V,4931.8095,N,02441.6579,E,0.0000,0.000,080920,,*3C
$GPRMC,091749,V,4912.0678,N,02605.0696,E,0.0000,0.000,080920,,*31
$GPRMC,091750,V,4931.4601,N,02442.9147,E,0.0000,0.000,080920,,*31
$GPRMC,091751,V,4916.4404,N,02547.0176,E,0.0000,0.000,080920,,*3D
$GPRMC,091801,V,4944.8068,N,02342.8305,E,0.0000,0.000,080920,,*3F
$GPRMC,091802,V,4931.1768,N,02444.2126,E,0.0000,0.000,080920,,*38
$GPRMC,091802,V,4944.7271,N,02343.0695,E,0.0000,0.000,080920,,*3C
$GPRMC,091812,V,5002.4129,N,02217.1897,E,0.0000,0.000,080920,,*37
$GPRMC,091814,V,4941.6862,N,02356.4134,E,0.0000,0.000,080920,,*3B
$GPRMC,091825,V,4838.7401,N,02818.6237,E,0.0000,0.000,080920,,*3D
$GPRMC,091826,V,4859.5744,N,02657.3117,E,0.0000,0.000,080920,,*38
$GPRMC,091827,V,4820.0999,N,02927.7856,E,0.0000,0.000,080920,,*3C
$GPRMC,091837,V,4654.4267,N,03410.8329,E,0.0000,0.000,080920,,*3A
$GPRMC,091838,V,4654.4742,N,03410.9070,E,0.0000,0.000,080920,,*39
$GPRMC,091839,V,4716.9612,N,03302.0360,E,0.0000,0.000,080920,,*39
$GPRMC,091849,V,4814.6446,N,02949.9614,E,0.0000,0.000,080920,,*34
$GPRMC,091849,V,4830.9481,N,02850.1583,E,0.0000,0.000,080920,,*3A
$GPRMC,091851,V,4830.9478,N,02850.2507,E,0.0000,0.000,080920,,*3A
$GPRMC,091901,V,4738.2765,N,03157.2233,E,0.0000,0.000,080920,,*32
$GPRMC,091902,V,4738.3028,N,03157.3031,E,0.0000,0.000,080920,,*3F
$GPRMC,091903,V,4738.3293,N,03157.3834,E,0.0000,0.000,080920,,*31
$GPRMC,091913,V,4814.8363,N,02952.0722,E,0.0000,0.000,080920,,*33
$GPRMC,091914,V,4830.9352,N,02852.3674,E,0.0000,0.000,080920,,*31
$GPRMC,091925,V,4936.5118,N,02416.0796,E,0.0000,0.000,080920,,*36
$GPRMC,091926,V,4936.4736,N,02416.1939,E,0.0000,0.000,080920,,*34
$GPRMC,091927,V,4948.0023,N,02320.3290,E,0.0000,0.000,080920,,*33
$GPRMC,091936,V,5024.7787,N,01958.8675,E,0.0000,0.000,080920,,*3D
$GPRMC,091938,V,5040.0166,N,01822.8035,E,0.0000,0.000,080920,,*31
$GPRMC,091939,V,5024.6386,N,01959.1492,E,0.0000,0.000,080920,,*35
$GPRMC,091949,V,4952.0351,N,02257.4362,E,0.0000,0.000,080920,,*3C
$GPRMC,091950,V,4951.9862,N,02257.5576,E,0.0000,0.000,080920,,*37
$GPRMC,091951,V,5008.0736,N,02131.7051,E,0.0000,0.000,080920,,*34
$GPRMC,092000,A,5107.2812,N,01347.4607,E,3.3531,7.810,080920,,*27
$GPRMC,092013,A,5107.3041,N,01347.4749,E,0.4353,357.379,080920,,*25
$GPRMC,092024,A,5107.3070,N,01347.4765,E,1.3436,31.451,080920,,*11
$GPRMC,092035,A,5107.3221,N,01347.4865,E,1.1979,45.226,080920,,*19
$GPRMC,092047,A,5107.3237,N,01347.4885,E,0.4528,5.242,080920,,*2F
$GPRMC,092059,A,5107.3236,N,01347.4886,E,0.2105,73.951,080920,,*17
$GPRMC,092111,A,5107.3259,N,01347.4901,E,0.1879,60.954,080920,,*1B
$GPRMC,092123,A,5107.3252,N,01347.4872,E,0.0911,207.716,080920,,*21
$GPRMC,092134,A,5107.3246,N,01347.4858,E,0.0465,174.286,080920,,*2F
$GPRMC,092145,A,5107.3246,N,01347.4853,E,0.1952,74.516,080920,,*15
$GPRMC,092157,A,5107.3249,N,01347.4850,E,0.0733,314.428,080920,,*2B
$GPRMC,092209,A,5107.3259,N,01347.4858,E,0.0617,267.690,080920,,*29
$GPRMC,092221,A,5107.3257,N,01347.4865,E,0.0280,301.645,080920,,*20
$GPRMC,092233,A,5107.3256,N,01347.4871,E,0.9236,47.978,080920,,*13
$GPRMC,092244,A,5107.3251,N,01347.4865,E,0.2581,235.217,080920,,*24
$GPRMC,092255,A,5107.3245,N,01347.4855,E,0.0862,80.939,080920,,*1B
$GPRMC,092307,A,5107.3246,N,01347.4855,E,0.2138,46.469,080920,,*18
$GPRMC,092319,A,5107.3246,N,01347.4856,E,0.4504,233.555,080920,,*27
$GPRMC,092331,A,5107.3238,N,01347.4852,E,0.2517,206.567,080920,,*23
$GPRMC,092343,A,5107.3223,N,01347.4843,E,0.1518,213.794,080920,,*2A
$GPRMC,092354,A,5107.3213,N,01347.4837,E,0.5198,206.197,080920,,*25
$GPRMC,092405,A,5107.3210,N,01347.4837,E,0.2065,204.037,080920,,*28
$GPRMC,092417,A,5107.3230,N,01347.4849,E,0.0622,245.525,080920,,*24
$GPRMC,092429,A,5107.3236,N,01347.4851,E,0.2011,30.799,080920,,*17
$GPRMC,092441,A,5107.3233,N,01347.4844,E,0.0809,20.100,080920,,*1C
$GPRMC,092453,A,5107.3224,N,01347.4837,E,0.0136,358.556,080920,,*23
$GPRMC,092504,A,5107.3221,N,01347.4836,E,0.1339,22.536,080920,,*10
$GPRMC,092515,A,5107.3220,N,01347.4834,E,0.0788,252.597,080920,,*22
$GPRMC,092527,A,5107.3224,N,01347.4836,E,0.0712,190.981,080920,,*20
$GPRMC,092539,A,5107.3226,N,01347.4837,E,0.1297,212.594,080920,,*24
$GPRMC,092551,A,5107.3233,N,01347.4838,E,0.0583,102.096,080920,,*27
$GPRMC,092603,A,5107.3241,N,01347.4845,E,0.0689,146.429,080920,,*25
$GPRMC,092614,A,5107.3245,N,01347.4853,E,0.1082,40.678,080920,,*1D
$GPRMC,092625,A,5107.3251,N,01347.4866,E,0.0348,203.555,080920,,*21
$GPRMC,092637,A,5107.3241,N,01347.4865,E,0.2297,211.938,080920,,*25
$GPRMC,092649,A,5107.3229,N,01347.4861,E,0.2375,290.654,080920,,*27
$GPRMC,092701,A,5107.3217,N,01347.4851,E,0.0464,142.110,080920,,*2A
$GPRMC,092713,A,5107.3204,N,01347.4837,E,0.2246,70.388,080920,,*1C
$GPRMC,092724,A,5107.3200,N,01347.4825,E,0.3279,168.864,080920,,*23
$GPRMC,092735,A,5107.3201,N,01347.4812,E,0.0896,286.737,080920,,*24
$GPRMC,092747,A,5107.3207,N,01347.4802,E,0.4944,212.128,080920,,*29
$GPRMC,092759,A,5107.3210,N,01347.4806,E,0.0882,65.296,080920,,*1F
$GPRMC,092811,A,5107.3202,N,01347.4820,E,0.1177,36.805,080920,,*1F
$GPRMC,092823,A,5107.3185,N,01347.4827,E,0.0351,146.823,080920,,*20
$GPRMC,092834,A,5107.3196,N,01347.4840,E,0.8877,187.644,080920,,*20
$GPRMC,092845,A,5107.3219,N,01347.4850,E,0.1400,317.620,080920,,*2F
$GPRMC,092857,A,5107.3246,N,01347.4853,E,0.2922,14.768,080920,,*16
$GPRMC,092909,A,5107.3255,N,01347.4860,E,0.0629,196.822,080920,,*22
$GPRMC,092921,A,5107.3242,N,01347.4865,E,0.1516,195.833,080920,,*26
$GPRMC,092933,A,5107.3231,N,01347.4866,E,0.0939,164.858,080920,,*21
$GPRMC,092944,A,5107.3231,N,01347.4862,E,0.0980,176.890,080920,,*20
$GPRMC,092955,A,5107.3238,N,01347.4862,E,0.3864,175.517,080920,,*20
$GPRMC,093007,A,5107.3240,N,01347.4853,E,0.0922,124.647,080920,,*20
$GPRMC,093019,A,5107.3231,N,01347.4841,E,0.1520,168.936,080920,,*24
$GPRMC,093031,A,5107.3237,N,01347.4836,E,0.2826,19.290,080920,,*10
$GPRMC,093043,A,5107.3245,N,01347.4835,E,0.0693,159.551,080920,,*2E
$GPRMC,093054,A,5107.3239,N,01347.4835,E,0.2959,157.131,080920,,*24
$GPRMC,093105,A,5107.3238,N,01347.4833,E,0.2330,188.984,080920,,*27
$GPRMC,093117,A,5107.3239,N,01347.4834,E,0.0583,144.948,080920,,*2E
$GPRMC,093129,A,5107.3241,N,01347.4827,E,0.2103,186.231,080920,,*2B
$GPRMC,093141,A,5107.3224,N,01347.4829,E,0.0696,322.109,080920,,*25
$GPRMC,093153,A,5107.3214,N,01347.4838,E,0.1411,25.581,080920,,*19
$GPRMC,093204,A,5107.3227,N,01347.4841,E,0.2794,128.630,080920,,*2E
$GPRMC,093215,A,5107.3251,N,01347.4835,E,0.6146,157.059,080920,,*20
$GPRMC,093227,A,5107.3249,N,01347.4840,E,0.4089,150.704,080920,,*22
$GPRMC,093239,A,5107.3239,N,01347.4852,E,0.0375,310.587,080920,,*22
$GPRMC,093251,A,5107.3246,N,01347.4853,E,0.0946,273.538,080920,,*2F
$GPRMC,093303,A,5107.3261,N,01347.4844,E,0.2362,273.373,080920,,*2D
$GPRMC,093314,A,5107.3262,N,01347.4849,E,0.0991,133.749,080920,,*2B
$GPRMC,093325,A,5107.3258,N,01347.4857,E,0.0365,63.870,080920,,*1F
$GPRMC,093337,A,5107.3257,N,01347.4864,E,0.0425,117.214,080920,,*2A
$GPRMC,093349,A,5107.3260,N,01347.4857,E,0.4185,145.192,080920,,*26
$GPRMC,093401,A,5107.3261,N,01347.4852,E,0.3027,33.994,080920,,*19
$GPRMC,093413,A,5107.3265,N,01347.4851,E,0.1858,12.970,080920,,*16
$GPRMC,093424,A,5107.3265,N,01347.4848,E,0.0868,25.775,080920,,*17
$GPRMC,093435,A,5107.3278,N,01347.4853,E,0.0273,189.775,080920,,*26
$GPRMC,093447,A,5107.3282,N,01347.4852,E,0.0332,85.700,080920,,*1C
$GPRMC,093459,A,5107.3292,N,01347.4877,E,1.2913,120.004,080920,,*22
$GPRMC,093511,A,5107.3264,N,01347.4877,E,3.1523,222.099,080920,,*2D
$GPRMC,093523,A,5107.3010,N,01347.4882,E,5.5267,126.819,080920,,*25
$GPRMC,093534,A,5107.2938,N,01347.4737,E,9.1494,283.257,080920,,*2E
$GPRMC,093545,A,5107.3387,N,01347.4709,E,19.0819,356.705,080920,,*18
$GPRMC,093557,A,5107.3709,N,01347.4735,E,0.1391,121.233,080920,,*26
$GPRMC,093609,A,5107.3699,N,01347.4740,E,0.1564,127.599,080920,,*29
$GPRMC,093621,A,5107.3941,N,01347.4840,E,20.8978,8.451,080920,,*15
$GPRMC,093633,A,5107.4798,N,01347.5035,E,22.9102,8.156,080920,,*14
$GPRMC,093644,A,5107.5285,N,01347.5131,E,0.4369,346.669,080920,,*29
$GPRMC,093655,A,5107.5290,N,01347.5135,E,0.4906,106.637,080920,,*27
$GPRMC,093707,A,5107.5294,N,01347.5136,E,0.2417,18.208,080920,,*1B
$GPRMC,093719,A,5107.5390,N,01347.4583,E,16.4873,278.239,080920,,*13
$GPRMC,093731,A,5107.5222,N,01347.4255,E,15.7662,200.495,080920,,*1C
$GPRMC,093743,A,5107.4871,N,01347.4058,E,3.8369,164.560,080920,,*27
$GPRMC,093754,A,5107.4852,N,01347.4072,E,0.8658,351.013,080920,,*29
$GPRMC,093805,A,5107.4846,N,01347.4089,E,0.5640,83.171,080920,,*1E
$GPRMC,093817,A,5107.4825,N,01347.4065,E,1.2370,222.084,080920,,*28
$GPRMC,093829,A,5107.4815,N,01347.4063,E,0.4728,172.910,080920,,*2C
$GPRMC,093841,A,5107.4802,N,01347.4065,E,0.3783,140.531,080920,,*2A
$GPRMC,093853,A,5107.4818,N,01347.4096,E,0.7848,75.850,080920,,*1F
$GPRMC,093904,A,5107.4748,N,01347.3991,E,6.4444,220.491,080920,,*29
$GPRMC,093915,A,5107.4695,N,01347.4003,E,3.7884,178.315,080920,,*2E
$GPRMC,093927,A,5107.4486,N,01347.4163,E,7.6520,148.066,080920,,*2A
$GPRMC,093928,A,5107.4460,N,01347.4157,E,7.5072,155.444,080920,,*23
$GPRMC,093939,A,5107.4557,N,01347.4197,E,2.2708,125.952,080920,,*2F
$GPRMC,093951,A,5107.4534,N,01347.4745,E,17.6639,112.609,080920,,*1B
$GPRMC,094003,A,5107.4530,N,01347.4822,E,1.6272,78.108,080920,,*1F
$GPRMC,094014,A,5107.4527,N,01347.4869,E,1.6729,117.919,080920,,*2B
$GPRMC,094015,A,5107.4525,N,01347.4876,E,1.6729,117.919,080920,,*26
$GPRMC,094016,A,5107.4522,N,01347.4882,E,1.6729,117.919,080920,,*29
$GPRMC,094027,A,5107.4520,N,01347.4889,E,0.0000,0.000,080920,,*2F
$GPRMC,094028,A,5107.4520,N,01347.4889,E,0.0000,0.000,080920,,*20
$GPRMC,094029,A,5107.4520,N,01347.4889,E,0.0000,0.000,080920,,*21
$GPRMC,094040,A,5107.4520,N,01347.4889,E,0.0000,0.000,080920,,*2E
$GPRMC,094041,A,5107.4520,N,01347.4889,E,0.0000,0.000,080920,,*2F
$GPRMC,094042,A,5107.4520,N,01347.4889,E,0.0000,0.000,080920,,*2C
$GPRMC,094212.00,V,,,,,,,080920,,,N*77
$GPRMC,094223,V,5107.4544,N,01347.4817,E,0.0000,0.000,080920,,*3B
$GPRMC,094224,V,5107.4544,N,01347.4817,E,0.0000,0.000,080920,,*3C
$GPRMC,094225,V,5107.4544,N,01347.4817,E,0.0000,0.000,080920,,*3D
$GPRMC,094236,V,5107.4544,N,01347.4817,E,0.0000,0.000,080920,,*3F
$GPRMC,094237,V,5107.4544,N,01347.4817,E,0.0000,0.000,080920,,*3E
$GPRMC,094238,V,5107.4544,N,01347.4817,E,0.0000,0.000,080920,,*31
$GPRMC,094249,V,5107.4544,N,01347.4817,E,0.0000,0.000,080920,,*37
$GPRMC,094250,V,5107.4544,N,01347.4817,E,0.0000,0.000,080920,,*3F
$GPRMC,094251,V,5107.4544,N,01347.4817,E,0.0000,0.000,080920,,*3E
$GPRMC,094301,V,5107.4544,N,01347.4817,E,0.0000,0.000,080920,,*3A
$GPRMC,094302,V,5107.4544,N,01347.4817,E,0.0000,0.000,080920,,*39
$GPRMC,094303,V,5107.4544,N,01347.4817,E,0.0000,0.000,080920,,*38
$GPRMC,094313,V,5107.4544,N,01347.4817,E,0.0000,0.000,080920,,*39
$GPRMC,094314,V,5107.4544,N,01347.4817,E,0.0000,0.000,080920,,*3E
$GPRMC,094315,V,5107.4544,N,01347.4817,E,0.0000,0.000,080920,,*3F
$GPRMC,094325,V,5107.4544,N,01347.4817,E,0.0000,0.000,080920,,*3C
$GPRMC,094326,V,5107.4544,N,01347.4817,E,0.0000,0.000,080920,,*3F
$GPRMC,094327,V,5107.4544,N,01347.4817,E,0.0000,0.000,080920,,*3E
$GPRMC,094337,V,5107.4544,N,01347.4817,E,0.0000,0.000,080920,,*3F
$GPRMC,094338,V,5107.4544,N,01347.4817,E,0.0000,0.000,080920,,*30
$GPRMC,094339,V,5107.4544,N,01347.4817,E,0.0000,0.000,080920,,*31
$GPRMC,094349,V,5107.4544,N,01347.4817,E,0.0000,0.000,080920,,*36
$GPRMC,094350,V,5107.4544,N,01347.4817,E,0.0000,0.000,080920,,*3E
$GPRMC,094351,V,5107.4544,N,01347.4817,E,0.0000,0.000,080920,,*3F
$GPRMC,094401,V,5107.4544,N,01347.4817,E,0.0000,0.000,080920,,*3D
$GPRMC,094402,V,5107.4544,N,01347.4817,E,0.0000,0.000,080920,,*3E
$GPRMC,094403,V,5107.4544,N,01347.4817,E,0.0000,0.000,080920,,*3F
$GPRMC,094413,V,5107.4544,N,01347.4817,E,0.0000,0.000,080920,,*3E
$GPRMC,094414,V,5107.4544,N,01347.4817,E,0.0000,0.000,080920,,*39
$GPRMC,094415,V,5107.4544,N,01347.4817,E,0.0000,0.000,080920,,*38
$GPRMC,094425,V,5107.4544,N,01347.4817,E,0.0000,0.000,080920,,*3B
$GPRMC,094426,V,5107.4544,N,01347.4817,E,0.0000,0.000,080920,,*38
$GPRMC,094427,V,5107.4544,N,01347.4817,E,0.0000,0.000,080920,,*39
$GPRMC,094437,V,5107.4544,N,01347.4817,E,0.0000,0.000,080920,,*38
$GPRMC,094438,V,5107.4544,N,01347.4817,E,0.0000,0.000,080920,,*37
$GPRMC,094439,V,5107.4544,N,01347.4817,E,0.0000,0.000,080920,,*36
$GPRMC,094449,V,5107.4544,N,01347.4817,E,0.0000,0.000,080920,,*31
$GPRMC,094450,V,5107.4544,N,01347.4817,E,0.0000,0.000,080920,,*39
$GPRMC,094451,V,5107.4544,N,01347.4817,E,0.0000,0.000,080920,,*38
$GPRMC,094501,V,5107.4544,N,01347.4817,E,0.0000,0.000,080920,,*3C
$GPRMC,094502,V,5107.4544,N,01347.4817,E,0.0000,0.000,080920,,*3F
$GPRMC,094503,V,5107.4544,N,01347.4817,E,0.0000,0.000,080920,,*3E
$GPRMC,094513,V,5107.4544,N,01347.4817,E,0.0000,0.000,080920,,*3F
$GPRMC,094514,V,5107.4544,N,01347.4817,E,0.0000,0.000,080920,,*38
$GPRMC,094525,V,5107.4544,N,01347.4817,E,0.0000,0.000,080920,,*3A
$GPRMC,094526,V,5107.4544,N,01347.4817,E,0.0000,0.000,080920,,*39
$GPRMC,094527,V,5107.4544,N,01347.4817,E,0.0000,0.000,080920,,*38
$GPRMC,094537,V,5107.4544,N,01347.4817,E,0.0000,0.000,080920,,*39
$GPRMC,094538,V,5107.4544,N,01347.4817,E,0.0000,0.000,080920,,*36
$GPRMC,094539,V,5107.4544,N,01347.4817,E,0.0000,0.000,080920,,*37
$GPRMC,094549,V,5107.4544,N,01347.4817,E,0.0000,0.000,080920,,*30
$GPRMC,094550,V,5107.4544,N,01347.4817,E,0.0000,0.000,080920,,*38
$GPRMC,094551,V,5107.4544,N,01347.4817,E,0.0000,0.000,080920,,*39
$GPRMC,094600,V,5107.4544,N,01347.4817,E,0.0000,0.000,080920,,*3E
$GPRMC,094602,V,5107.4544,N,01347.4817,E,0.0000,0.000,080920,,*3C
$GPRMC,094603,V,5107.4544,N,01347.4817,E,0.0000,0.000,080920,,*3D
$GPRMC,094613,V,5107.4544,N,01347.4817,E,0.0000,0.000,080920,,*3C
$GPRMC,094614,V,5107.4544,N,01347.4817,E,0.0000,0.000,080920,,*3B
$GPRMC,094625,V,5107.4544,N,01347.4817,E,0.0000,0.000,080920,,*39
$GPRMC,094626,V,5107.4544,N,01347.4817,E,0.0000,0.000,080920,,*3A
$GPRMC,094627,V,5107.4544,N,01347.4817,E,0.0000,0.000,080920,,*3B
$GPRMC,094637,V,5107.4544,N,01347.4817,E,0.0000,0.000,080920,,*3A
$GPRMC,094638,V,5107.4544,N,01347.4817,E,0.0000,0.000,080920,,*35
$GPRMC,094639,V,5107.4544,N,01347.4817,E,0.0000,0.000,080920,,*34
$GPRMC,094649,V,5107.4544,N,01347.4817,E,0.0000,0.000,080920,,*33
$GPRMC,094650,V,5107.4544,N,01347.4817,E,0.0000,0.000,080920,,*3B
$GPRMC,094651,V,5107.4544,N,01347.4817,E,0.0000,0.000,080920,,*3A
$GPRMC,094701,V,5107.4544,N,01347.4817,E,0.0000,0.000,080920,,*3E
$GPRMC,094702,V,5107.4544,N,01347.4817,E,0.0000,0.000,080920,,*3D
$GPRMC,094703,V,5107.4544,N,01347.4817,E,0.0000,0.000,080920,,*3C
